<?xml version="1.0" encoding="UTF-8" standalone="no"?>
<gpx xmlns="http://www.topografix.com/GPX/1/1" creator="GPS TrackMaker" version="1.1" xmlns:xsi="http://www.w3.org/2001/XMLSchema-instance" xsi:schemaLocation="http://www.topografix.com/GPX/1/1 http://www.topografix.com/GPX/1/1/gpx.xsd"><metadata><link href="http://www.trackmaker.com"><text>Geo Studio Tecnology Ltd</text></link><time>2012-01-25T18:50:32Z</time><bounds minlat="34.637738" minlon="-84.194996" maxlat="45.890806" maxlon="-68.961081"/></metadata><wpt lat="40.496688020" lon="-76.597527102"><ele>0.000000</ele><name>Rausch Gap</name><cmt></cmt><desc></desc><sym>Waypoint</sym></wpt><wpt lat="40.451472607" lon="-76.776121989"><ele>0.000000</ele><name>PA 325</name><cmt></cmt><desc></desc><sym>Waypoint</sym></wpt><wpt lat="40.769690155" lon="-75.694182919"><ele>0.000000</ele><name>Ashfield R</name><cmt></cmt><desc></desc><sym>Waypoint</sym></wpt><wpt lat="40.781362285" lon="-75.608760977"><ele>0.000000</ele><name>Lehigh Gap</name><cmt></cmt><desc></desc><sym>Waypoint</sym></wpt><wpt lat="39.261603489" lon="-77.762335581"><ele>0.000000</ele><name>VA 9 (Keys</name><cmt></cmt><desc></desc><sym>Waypoint</sym></wpt><wpt lat="41.059437399" lon="-74.963546785"><ele>0.000000</ele><name>Blairstown</name><cmt></cmt><desc></desc><sym>Waypoint</sym></wpt><wpt lat="41.058097418" lon="-74.964376821"><ele>0.000000</ele><name>Fire Road</name><cmt></cmt><desc></desc><sym>Waypoint</sym></wpt><wpt lat="41.329413311" lon="-74.643206625"><ele>0.000000</ele><name>NJ 519</name><cmt></cmt><desc></desc><sym>Waypoint</sym></wpt><wpt lat="41.500363372" lon="-73.813588141"><ele>0.000000</ele><name>Long Hill</name><cmt></cmt><desc></desc><sym>Waypoint</sym></wpt><wpt lat="40.195121261" lon="-77.108351523"><ele>0.000000</ele><name>Trindle Ro</name><cmt></cmt><desc></desc><sym>Waypoint</sym></wpt><wpt lat="40.935545960" lon="-75.197054103"><ele>0.000000</ele><name>PA 191 (Fo</name><cmt></cmt><desc></desc><sym>Waypoint</sym></wpt><wpt lat="40.583630798" lon="-75.941921214"><ele>0.000000</ele><name>Hamburg Wa</name><cmt></cmt><desc></desc><sym>Waypoint</sym></wpt><wpt lat="40.574622331" lon="-76.020087059"><ele>0.000000</ele><name>Port Clint</name><cmt></cmt><desc></desc><sym>Waypoint</sym></wpt><wpt lat="41.244208842" lon="-74.286654662"><ele>0.000000</ele><name>NY 17a</name><cmt></cmt><desc></desc><sym>Waypoint</sym></wpt><wpt lat="38.284468275" lon="-78.658741434"><ele>0.000000</ele><name>Skyline Dr</name><cmt></cmt><desc></desc><sym>Waypoint</sym></wpt><wpt lat="38.767802292" lon="-78.233603266"><ele>0.000000</ele><name>Skyline Dr</name><cmt></cmt><desc></desc><sym>Waypoint</sym></wpt><wpt lat="38.758826610" lon="-78.262163995"><ele>0.000000</ele><name>Skyline Dr</name><cmt></cmt><desc></desc><sym>Waypoint</sym></wpt><wpt lat="38.761183337" lon="-78.282334624"><ele>0.000000</ele><name>Skyline Dr</name><cmt></cmt><desc></desc><sym>Waypoint</sym></wpt><wpt lat="38.738887853" lon="-78.308615456"><ele>0.000000</ele><name>Elkwallow</name><cmt></cmt><desc></desc><sym>Waypoint</sym></wpt><wpt lat="38.897407869" lon="-78.071219987"><ele>0.000000</ele><name>VA 638 (Fi</name><cmt></cmt><desc></desc><sym>Waypoint</sym></wpt><wpt lat="40.321835845" lon="-77.078181044"><ele>0.000000</ele><name>PA 850</name><cmt></cmt><desc></desc><sym>Waypoint</sym></wpt><wpt lat="40.093199120" lon="-77.164133301"><ele>0.000000</ele><name>Sheet Iron</name><cmt></cmt><desc></desc><sym>Waypoint</sym></wpt><wpt lat="40.079417105" lon="-77.192463983"><ele>0.000000</ele><name>Appalachia</name><cmt></cmt><desc></desc><sym>Waypoint</sym></wpt><wpt lat="40.038390236" lon="-77.270015550"><ele>0.000000</ele><name>Pole Steep</name><cmt></cmt><desc></desc><sym>Waypoint</sym></wpt><wpt lat="40.031490287" lon="-77.289915812"><ele>0.000000</ele><name>Old Railro</name><cmt></cmt><desc></desc><sym>Waypoint</sym></wpt><wpt lat="40.031951195" lon="-77.305146013"><ele>0.000000</ele><name>Pine Grove</name><cmt></cmt><desc></desc><sym>Waypoint</sym></wpt><wpt lat="40.031651196" lon="-77.306196027"><ele>0.000000</ele><name>Pine Grove</name><cmt></cmt><desc></desc><sym>Waypoint</sym></wpt><wpt lat="40.008189230" lon="-77.394487172"><ele>0.000000</ele><name>Dead Woman</name><cmt></cmt><desc></desc><sym>Waypoint</sym></wpt><wpt lat="39.997683383" lon="-77.404817331"><ele>0.000000</ele><name>Big Flat</name><cmt></cmt><desc></desc><sym>Waypoint</sym></wpt><wpt lat="39.909236030" lon="-77.483519704"><ele>0.000000</ele><name>Caledonia</name><cmt></cmt><desc></desc><sym>Waypoint</sym></wpt><wpt lat="39.906782115" lon="-77.477509649"><ele>0.000000</ele><name>US 30 (Cal</name><cmt></cmt><desc></desc><sym>Waypoint</sym></wpt><wpt lat="39.849768574" lon="-77.508451049"><ele>0.000000</ele><name>PA 233</name><cmt></cmt><desc></desc><sym>Waypoint</sym></wpt><wpt lat="39.838298717" lon="-77.503581130"><ele>0.000000</ele><name>Snowy Moun</name><cmt></cmt><desc></desc><sym>Waypoint</sym></wpt><wpt lat="39.797341475" lon="-77.479251326"><ele>0.000000</ele><name>Rattlesnak</name><cmt></cmt><desc></desc><sym>Waypoint</sym></wpt><wpt lat="39.769555832" lon="-77.478721736"><ele>0.000000</ele><name>Rattlesnak</name><cmt></cmt><desc></desc><sym>Waypoint</sym></wpt><wpt lat="39.741391167" lon="-77.490072124"><ele>0.000000</ele><name>PA 16</name><cmt></cmt><desc></desc><sym>Waypoint</sym></wpt><wpt lat="39.694979394" lon="-77.523422089"><ele>0.000000</ele><name>High Rock</name><cmt></cmt><desc></desc><sym>Waypoint</sym></wpt><wpt lat="39.628327191" lon="-77.559711974"><ele>0.000000</ele><name>MD 17, Wol</name><cmt></cmt><desc></desc><sym>Waypoint</sym></wpt><wpt lat="39.535573421" lon="-77.603741973"><ele>0.000000</ele><name>US 40 (Ann</name><cmt></cmt><desc></desc><sym>Waypoint</sym></wpt><wpt lat="39.333132047" lon="-77.683143693"><ele>0.000000</ele><name>Weverton R</name><cmt></cmt><desc></desc><sym>Waypoint</sym></wpt><wpt lat="39.484305305" lon="-77.619902047"><ele>0.000000</ele><name>US Alt. 40</name><cmt></cmt><desc></desc><sym>Waypoint</sym></wpt><wpt lat="39.484976301" lon="-77.619862046"><ele>0.000000</ele><name>Dahlgren C</name><cmt></cmt><desc></desc><sym>Waypoint</sym></wpt><wpt lat="40.481897850" lon="-76.550736288"><ele>0.000000</ele><name>PA 443 (Sw</name><cmt></cmt><desc></desc><sym>Waypoint</sym></wpt><wpt lat="40.578441257" lon="-76.024057203"><ele>0.000000</ele><name>PA 61</name><cmt></cmt><desc></desc><sym>Waypoint</sym></wpt><wpt lat="40.527006047" lon="-76.223640258"><ele>0.000000</ele><name>PA 183 (so</name><cmt></cmt><desc></desc><sym>Waypoint</sym></wpt><wpt lat="40.525337104" lon="-76.216699879"><ele>0.000000</ele><name>PA 183 (no</name><cmt></cmt><desc></desc><sym>Waypoint</sym></wpt><wpt lat="40.512616964" lon="-76.344606759"><ele>0.000000</ele><name>PA 501</name><cmt></cmt><desc></desc><sym>Waypoint</sym></wpt><wpt lat="40.506759646" lon="-76.377338496"><ele>0.000000</ele><name>PA 645</name><cmt></cmt><desc></desc><sym>Waypoint</sym></wpt><wpt lat="43.521367621" lon="-72.925438178"><ele>0.000000</ele><name>VT 103</name><cmt></cmt><desc></desc><sym>Waypoint</sym></wpt><wpt lat="41.955990285" lon="-73.367693506"><ele>0.000000</ele><name>Falls Vill</name><cmt></cmt><desc></desc><sym>Waypoint</sym></wpt><wpt lat="41.963935179" lon="-73.372033613"><ele>0.000000</ele><name>Great Fall</name><cmt></cmt><desc></desc><sym>Waypoint</sym></wpt><wpt lat="42.028810016" lon="-73.428934268"><ele>0.000000</ele><name>Undermount</name><cmt></cmt><desc></desc><sym>Waypoint</sym></wpt><wpt lat="42.089556079" lon="-73.411231630"><ele>0.000000</ele><name>Race Brook</name><cmt></cmt><desc></desc><sym>Waypoint</sym></wpt><wpt lat="44.667744062" lon="-70.893007896"><ele>0.000000</ele><name>East B Hil</name><cmt></cmt><desc></desc><sym>Waypoint</sym></wpt><wpt lat="43.753608007" lon="-72.124611481"><ele>0.000000</ele><name>Goose Pond</name><cmt></cmt><desc></desc><sym>Waypoint</sym></wpt><wpt lat="43.717862101" lon="-72.176152729"><ele>0.000000</ele><name>Three Mile</name><cmt></cmt><desc></desc><sym>Waypoint</sym></wpt><wpt lat="43.790902385" lon="-72.101291423"><ele>0.000000</ele><name>Dartmouth</name><cmt></cmt><desc></desc><sym>Waypoint</sym></wpt><wpt lat="43.797194343" lon="-72.071500771"><ele>0.000000</ele><name>Dorchester</name><cmt></cmt><desc></desc><sym>Waypoint</sym></wpt><wpt lat="43.655046003" lon="-72.566140463"><ele>0.000000</ele><name>VT 12</name><cmt></cmt><desc></desc><sym>Waypoint</sym></wpt><wpt lat="43.207266620" lon="-72.969916741"><ele>0.000000</ele><name>VT 11 &amp; 30</name><cmt></cmt><desc></desc><sym>Waypoint</sym></wpt><wpt lat="43.989794928" lon="-71.899339114"><ele>0.000000</ele><name>NH 25</name><cmt></cmt><desc></desc><sym>Waypoint</sym></wpt><wpt lat="43.997606822" lon="-71.887488952"><ele>0.000000</ele><name>Jeffers Br</name><cmt></cmt><desc></desc><sym>Waypoint</sym></wpt><wpt lat="43.998691825" lon="-71.881428839"><ele>0.000000</ele><name>Sanitarium</name><cmt></cmt><desc></desc><sym>Waypoint</sym></wpt><wpt lat="45.616758425" lon="-69.130801425"><ele>0.000000</ele><name>Kokadjo B</name><cmt></cmt><desc></desc><sym>Waypoint</sym></wpt><wpt lat="42.195195186" lon="-73.285004062"><ele>0.000000</ele><name>Blue Hill</name><cmt></cmt><desc></desc><sym>Waypoint</sym></wpt><wpt lat="41.679902978" lon="-73.512759221"><ele>0.000000</ele><name>Schaghtico</name><cmt></cmt><desc></desc><sym>Waypoint</sym></wpt><wpt lat="45.778863216" lon="-69.173723014"><ele>0.000000</ele><name>Pollywog S</name><cmt></cmt><desc></desc><sym>Waypoint</sym></wpt><wpt lat="41.873596903" lon="-73.391274646"><ele>0.000000</ele><name>West Cornw</name><cmt></cmt><desc></desc><sym>Waypoint</sym></wpt><wpt lat="41.768175439" lon="-73.438856838"><ele>0.000000</ele><name>River Road</name><cmt></cmt><desc></desc><sym>Waypoint</sym></wpt><wpt lat="41.675618978" lon="-73.510409153"><ele>0.000000</ele><name>Bulls Brid</name><cmt></cmt><desc></desc><sym>Waypoint</sym></wpt><wpt lat="41.675317978" lon="-73.510979165"><ele>0.000000</ele><name>No Officia</name><cmt></cmt><desc></desc><sym>Waypoint</sym></wpt><wpt lat="41.998902440" lon="-73.437845539"><ele>0.000000</ele><name>Bunker Hil</name><cmt></cmt><desc></desc><sym>Waypoint</sym></wpt><wpt lat="36.177356824" lon="-82.011730598"><ele>0.000000</ele><name>US 19e</name><cmt></cmt><desc></desc><sym>Waypoint</sym></wpt><wpt lat="35.952541743" lon="-82.560929478"><ele>0.000000</ele><name>I-26, US 2</name><cmt></cmt><desc></desc><sym>Waypoint</sym></wpt><wpt lat="34.653026169" lon="-84.084513916"><ele>0.000000</ele><name>Cooper Gap</name><cmt></cmt><desc></desc><sym>Waypoint</sym></wpt><wpt lat="34.652787168" lon="-84.084943921"><ele>0.000000</ele><name>Cooper Gap</name><cmt></cmt><desc></desc><sym>Waypoint</sym></wpt><wpt lat="34.655740833" lon="-84.105804287"><ele>0.000000</ele><name>Horse Gap</name><cmt></cmt><desc></desc><sym>Waypoint</sym></wpt><wpt lat="34.663545354" lon="-84.129784709"><ele>0.000000</ele><name>USFS 42 (H</name><cmt></cmt><desc></desc><sym>Waypoint</sym></wpt><wpt lat="34.735102287" lon="-83.918099735"><ele>0.000000</ele><name>US 129 &amp; U</name><cmt></cmt><desc></desc><sym>Waypoint</sym></wpt><wpt lat="35.268066730" lon="-83.572305606"><ele>0.000000</ele><name>Tellico Ga</name><cmt></cmt><desc></desc><sym>Waypoint</sym></wpt><wpt lat="35.783331522" lon="-83.109351021"><ele>0.000000</ele><name>Waterville</name><cmt></cmt><desc></desc><sym>Waypoint</sym></wpt><wpt lat="35.460573901" lon="-83.811037639"><ele>0.000000</ele><name>Fontana Da</name><cmt></cmt><desc></desc><sym>Waypoint</sym></wpt><wpt lat="35.853363417" lon="-82.875365488"><ele>0.000000</ele><name>Garenflo G</name><cmt></cmt><desc></desc><sym>Waypoint</sym></wpt><wpt lat="35.825361374" lon="-82.937506628"><ele>0.000000</ele><name>Lemon Gap</name><cmt></cmt><desc></desc><sym>Waypoint</sym></wpt><wpt lat="34.799258813" lon="-83.690986785"><ele>0.000000</ele><name>USFS 79 (T</name><cmt></cmt><desc></desc><sym>Waypoint</sym></wpt><wpt lat="34.792890911" lon="-83.714308012"><ele>0.000000</ele><name>USFS 283 (</name><cmt></cmt><desc></desc><sym>Waypoint</sym></wpt><wpt lat="35.039539254" lon="-83.552701846"><ele>0.000000</ele><name>Deep Gap</name><cmt></cmt><desc></desc><sym>Waypoint</sym></wpt><wpt lat="37.351548061" lon="-80.379194701"><ele>0.000000</ele><name>VA 630</name><cmt></cmt><desc></desc><sym>Waypoint</sym></wpt><wpt lat="37.838454748" lon="-79.023247982"><ele>0.000000</ele><name>VA 56</name><cmt></cmt><desc></desc><sym>Waypoint</sym></wpt><wpt lat="37.380171932" lon="-80.089636028"><ele>0.000000</ele><name>VA 311</name><cmt></cmt><desc></desc><sym>Waypoint</sym></wpt><wpt lat="37.378795975" lon="-80.156037629"><ele>0.000000</ele><name>VA 311</name><cmt></cmt><desc></desc><sym>Waypoint</sym></wpt><wpt lat="37.411981234" lon="-80.522693533"><ele>0.000000</ele><name>VA 613</name><cmt></cmt><desc></desc><sym>Waypoint</sym></wpt><wpt lat="37.529350137" lon="-79.622450302"><ele>0.000000</ele><name>VA 614</name><cmt></cmt><desc></desc><sym>Waypoint</sym></wpt><wpt lat="37.414494343" lon="-80.583297058"><ele>0.000000</ele><name>VA 635</name><cmt></cmt><desc></desc><sym>Waypoint</sym></wpt><wpt lat="37.170150086" lon="-80.902160853"><ele>0.000000</ele><name>VA 606</name><cmt></cmt><desc></desc><sym>Waypoint</sym></wpt><wpt lat="36.834854968" lon="-81.370528616"><ele>0.000000</ele><name>USFS 86</name><cmt></cmt><desc></desc><sym>Waypoint</sym></wpt><wpt lat="36.897396544" lon="-81.369198463"><ele>0.000000</ele><name>VA 617</name><cmt></cmt><desc></desc><sym>Waypoint</sym></wpt><wpt lat="36.633549542" lon="-81.505773381"><ele>0.000000</ele><name>Grayson Hi</name><cmt></cmt><desc></desc><sym>Waypoint</sym></wpt><wpt lat="36.633293514" lon="-81.508723459"><ele>0.000000</ele><name>Grayson Hi</name><cmt></cmt><desc></desc><sym>Waypoint</sym></wpt><wpt lat="37.139542396" lon="-81.119903510"><ele>0.000000</ele><name>VA 612</name><cmt></cmt><desc></desc><sym>Waypoint</sym></wpt><wpt lat="37.137233324" lon="-81.133144301"><ele>0.000000</ele><name>US 51</name><cmt></cmt><desc></desc><sym>Waypoint</sym></wpt><wpt lat="37.077047329" lon="-81.307064207"><ele>0.000000</ele><name>VA 623</name><cmt></cmt><desc></desc><sym>Waypoint</sym></wpt><wpt lat="36.631987461" lon="-81.601286119"><ele>0.000000</ele><name>USFS 89 (W</name><cmt></cmt><desc></desc><sym>Waypoint</sym></wpt><wpt lat="37.596961297" lon="-79.391335951"><ele>0.000000</ele><name>US 501</name><cmt></cmt><desc></desc><sym>Waypoint</sym></wpt><wpt lat="39.720972642" lon="-77.506752143"><ele>0.000000</ele><name>Pen Mar Ro</name><cmt></cmt><desc></desc><sym>Waypoint</sym></wpt><wpt lat="39.656128487" lon="-77.538251875"><ele>0.000000</ele><name>Warner Gap</name><cmt></cmt><desc></desc><sym>Waypoint</sym></wpt><wpt lat="39.628388193" lon="-77.558851957"><ele>0.000000</ele><name>MD 17, Wol</name><cmt></cmt><desc></desc><sym>Waypoint</sym></wpt><wpt lat="41.304697569" lon="-74.670097365"><ele>0.000000</ele><name>NJ 23 (Hig</name><cmt></cmt><desc></desc><sym>Waypoint</sym></wpt><wpt lat="41.033257650" lon="-75.003598336"><ele>0.000000</ele><name>Mohican Ou</name><cmt></cmt><desc></desc><sym>Waypoint</sym></wpt><wpt lat="39.406448722" lon="-77.638652557"><ele>0.000000</ele><name>Gathland S</name><cmt></cmt><desc></desc><sym>Waypoint</sym></wpt><wpt lat="39.470581424" lon="-77.617421990"><ele>0.000000</ele><name>Reno Monum</name><cmt></cmt><desc></desc><sym>Waypoint</sym></wpt><wpt lat="41.089892150" lon="-74.911014863"><ele>0.000000</ele><name>Bml Road</name><cmt></cmt><desc></desc><sym>Waypoint</sym></wpt><wpt lat="41.089892150" lon="-74.911014863"><ele>0.000000</ele><name>Bml Road</name><cmt></cmt><desc></desc><sym>Waypoint</sym></wpt><wpt lat="41.180205743" lon="-74.787470779"><ele>0.000000</ele><name>Culvers Ga</name><cmt></cmt><desc></desc><sym>Waypoint</sym></wpt><wpt lat="40.971152507" lon="-75.127212369"><ele>0.000000</ele><name>AT Overflo</name><cmt></cmt><desc></desc><sym>Waypoint</sym></wpt><wpt lat="40.971739531" lon="-75.125232312"><ele>0.000000</ele><name>Dunnfield</name><cmt></cmt><desc></desc><sym>Waypoint</sym></wpt><wpt lat="40.971953563" lon="-75.123002241"><ele>0.000000</ele><name>I-80</name><cmt></cmt><desc></desc><sym>Waypoint</sym></wpt><wpt lat="41.304550569" lon="-74.581505296"><ele>0.000000</ele><name>Goldsmith</name><cmt></cmt><desc></desc><sym>Waypoint</sym></wpt><wpt lat="41.302443585" lon="-74.575665162"><ele>0.000000</ele><name>Unionville</name><cmt></cmt><desc></desc><sym>Waypoint</sym></wpt><wpt lat="41.300400601" lon="-74.571625069"><ele>0.000000</ele><name>Quarry Roa</name><cmt></cmt><desc></desc><sym>Waypoint</sym></wpt><wpt lat="41.296571627" lon="-74.562274850"><ele>0.000000</ele><name>Lott Road</name><cmt></cmt><desc></desc><sym>Waypoint</sym></wpt><wpt lat="41.288447680" lon="-74.551764601"><ele>0.000000</ele><name>NJ 284</name><cmt></cmt><desc></desc><sym>Waypoint</sym></wpt><wpt lat="41.254845812" lon="-74.500153267"><ele>0.000000</ele><name>Louemma</name><cmt></cmt><desc></desc><sym>Waypoint</sym></wpt><wpt lat="41.248353845" lon="-74.497433139"><ele>0.000000</ele><name>NJ 565</name><cmt></cmt><desc></desc><sym>Waypoint</sym></wpt><wpt lat="41.226759979" lon="-74.468591799"><ele>0.000000</ele><name>Canal Road</name><cmt></cmt><desc></desc><sym>Waypoint</sym></wpt><wpt lat="41.219411008" lon="-74.454671182"><ele>0.000000</ele><name>NJ 94</name><cmt></cmt><desc></desc><sym>Waypoint</sym></wpt><wpt lat="41.219731004" lon="-74.454581181"><ele>0.000000</ele><name>NJ 94 (Ann</name><cmt></cmt><desc></desc><sym>Waypoint</sym></wpt><wpt lat="41.219614589" lon="-74.717388833"><ele>0.000000</ele><name>Sunrise Mo</name><cmt></cmt><desc></desc><sym>Waypoint</sym></wpt><wpt lat="41.185956916" lon="-74.331776026"><ele>0.000000</ele><name>State Line</name><cmt></cmt><desc></desc><sym>Waypoint</sym></wpt><wpt lat="41.201547956" lon="-74.391068502"><ele>0.000000</ele><name>Warwick Tu</name><cmt></cmt><desc></desc><sym>Waypoint</sym></wpt><wpt lat="43.537149461" lon="-72.870956984"><ele>0.000000</ele><name>Lower Cold</name><cmt></cmt><desc></desc><sym>Waypoint</sym></wpt><wpt lat="43.671934902" lon="-72.553380370"><ele>0.000000</ele><name>Stage Road</name><cmt></cmt><desc></desc><sym>Waypoint</sym></wpt><wpt lat="41.731188084" lon="-73.490268740"><ele>0.000000</ele><name>CT 341</name><cmt></cmt><desc></desc><sym>Waypoint</sym></wpt><wpt lat="41.757916419" lon="-73.450077300"><ele>0.000000</ele><name>River Road</name><cmt></cmt><desc></desc><sym>Waypoint</sym></wpt><wpt lat="41.675825976" lon="-73.514109242"><ele>0.000000</ele><name>Bulls Brid</name><cmt></cmt><desc></desc><sym>Waypoint</sym></wpt><wpt lat="41.644508960" lon="-73.518729273"><ele>0.000000</ele><name>CT 55</name><cmt></cmt><desc></desc><sym>Waypoint</sym></wpt><wpt lat="45.477840277" lon="-69.284863877"><ele>0.000000</ele><name>West Branc</name><cmt></cmt><desc></desc><sym>Waypoint</sym></wpt><wpt lat="45.477806282" lon="-69.284293867"><ele>0.000000</ele><name>West Branc</name><cmt></cmt><desc></desc><sym>Waypoint</sym></wpt><wpt lat="42.144646129" lon="-73.431180368"><ele>0.000000</ele><name>Jug End Ro</name><cmt></cmt><desc></desc><sym>Waypoint</sym></wpt><wpt lat="42.147246125" lon="-73.386268871"><ele>0.000000</ele><name>Sheffield</name><cmt></cmt><desc></desc><sym>Waypoint</sym></wpt><wpt lat="45.039922421" lon="-70.344172027"><ele>0.000000</ele><name>Caribou Va</name><cmt></cmt><desc></desc><sym>Waypoint</sym></wpt><wpt lat="45.039752422" lon="-70.344142027"><ele>0.000000</ele><name>Caribou Va</name><cmt></cmt><desc></desc><sym>Waypoint</sym></wpt><wpt lat="42.885255458" lon="-73.114839619"><ele>0.000000</ele><name>VT 9</name><cmt></cmt><desc></desc><sym>Waypoint</sym></wpt><wpt lat="34.637738054" lon="-84.194995798"><ele>0.000000</ele><name>USFS 42</name><cmt></cmt><desc></desc><sym>Waypoint</sym></wpt><wpt lat="34.663486640" lon="-84.183955551"><ele>0.000000</ele><name>Three Fork</name><cmt></cmt><desc></desc><sym>Waypoint</sym></wpt><wpt lat="35.358360054" lon="-83.717844150"><ele>0.000000</ele><name>NC 143 (St</name><cmt></cmt><desc></desc><sym>Waypoint</sym></wpt><wpt lat="35.611071199" lon="-83.424831387"><ele>0.000000</ele><name>US 441 (Ne</name><cmt></cmt><desc></desc><sym>Waypoint</sym></wpt><wpt lat="35.609526790" lon="-83.446552503"><ele>0.000000</ele><name>Clingman's</name><cmt></cmt><desc></desc><sym>Waypoint</sym></wpt><wpt lat="37.372882756" lon="-80.446188444"><ele>0.000000</ele><name>VA 601 (Ro</name><cmt></cmt><desc></desc><sym>Waypoint</sym></wpt><wpt lat="45.331324286" lon="-69.535692264"><ele>0.000000</ele><name>ME 15</name><cmt></cmt><desc></desc><sym>Waypoint</sym></wpt><wpt lat="45.651279530" lon="-69.031441562"><ele>0.000000</ele><name>Jo Mary Ro</name><cmt></cmt><desc></desc><sym>Waypoint</sym></wpt><wpt lat="45.735960116" lon="-69.103770833"><ele>0.000000</ele><name>No Officia</name><cmt></cmt><desc></desc><sym>Waypoint</sym></wpt><wpt lat="45.882504066" lon="-69.031875105"><ele>0.000000</ele><name>Daicy Pond</name><cmt></cmt><desc></desc><sym>Waypoint</sym></wpt><wpt lat="45.890806271" lon="-69.009515188"><ele>0.000000</ele><name>Grassy Pon</name><cmt></cmt><desc></desc><sym>Waypoint</sym></wpt><wpt lat="45.887413375" lon="-69.000170542"><ele>0.000000</ele><name>Katahdin S</name><cmt></cmt><desc></desc><sym>Waypoint</sym></wpt><wpt lat="45.835423348" lon="-68.965241209"><ele>0.000000</ele><name>Abol Bridg</name><cmt></cmt><desc></desc><sym>Waypoint</sym></wpt><wpt lat="45.835200961" lon="-68.968046329"><ele>0.000000</ele><name>Golden Roa</name><cmt></cmt><desc></desc><sym>Waypoint</sym></wpt><wpt lat="45.835433158" lon="-68.968303780"><ele>0.000000</ele><name>Golden Roa</name><cmt></cmt><desc></desc><sym>Waypoint</sym></wpt><wpt lat="45.835454003" lon="-68.969316203"><ele>0.000000</ele><name>Golden Roa</name><cmt></cmt><desc></desc><sym>Waypoint</sym></wpt><wpt lat="45.835188151" lon="-68.969520241"><ele>0.000000</ele><name>Golden Roa</name><cmt></cmt><desc></desc><sym>Waypoint</sym></wpt><wpt lat="45.134982092" lon="-70.171362237"><ele>0.000000</ele><name>Bog Brook</name><cmt></cmt><desc></desc><sym>Waypoint</sym></wpt><wpt lat="45.135197214" lon="-70.173010914"><ele>0.000000</ele><name>Bog Brook</name><cmt></cmt><desc></desc><sym>Waypoint</sym></wpt><wpt lat="45.111893364" lon="-70.349433429"><ele>0.000000</ele><name>No Officia</name><cmt></cmt><desc></desc><sym>Waypoint</sym></wpt><wpt lat="45.111811836" lon="-70.349348353"><ele>0.000000</ele><name>No Officia</name><cmt></cmt><desc></desc><sym>Waypoint</sym></wpt><wpt lat="45.273460775" lon="-69.921934250"><ele>0.000000</ele><name>No Officia</name><cmt></cmt><desc></desc><sym>Waypoint</sym></wpt><wpt lat="45.273157700" lon="-69.922102406"><ele>0.000000</ele><name>No Officia</name><cmt></cmt><desc></desc><sym>Waypoint</sym></wpt><wpt lat="45.270879413" lon="-69.914281895"><ele>0.000000</ele><name>Pleasant P</name><cmt></cmt><desc></desc><sym>Waypoint</sym></wpt><wpt lat="45.249728103" lon="-69.831247187"><ele>0.000000</ele><name>No Officia</name><cmt></cmt><desc></desc><sym>Waypoint</sym></wpt><wpt lat="45.102744524" lon="-70.356543925"><ele>0.000000</ele><name>ME 27</name><cmt></cmt><desc></desc><sym>Waypoint</sym></wpt><wpt lat="44.589928206" lon="-70.947565581"><ele>0.000000</ele><name>NH 26 (Gra</name><cmt></cmt><desc></desc><sym>Waypoint</sym></wpt><wpt lat="44.535178675" lon="-71.021201966"><ele>0.000000</ele><name>No Officia</name><cmt></cmt><desc></desc><sym>Waypoint</sym></wpt><wpt lat="44.510694149" lon="-71.043233205"><ele>0.000000</ele><name>No Officia</name><cmt></cmt><desc></desc><sym>Waypoint</sym></wpt><wpt lat="44.224956632" lon="-71.478393813"><ele>0.000000</ele><name>Zealand Ro</name><cmt></cmt><desc></desc><sym>Waypoint</sym></wpt><wpt lat="37.779954747" lon="-79.181966990"><ele>0.000000</ele><name>USFS 63</name><cmt></cmt><desc></desc><sym>Waypoint</sym></wpt><wpt lat="37.759733702" lon="-79.195223959"><ele>0.000000</ele><name>USFS 48</name><cmt></cmt><desc></desc><sym>Waypoint</sym></wpt><wpt lat="37.723153195" lon="-79.249201495"><ele>0.000000</ele><name>US 60 Long</name><cmt></cmt><desc></desc><sym>Waypoint</sym></wpt><wpt lat="37.945563158" lon="-78.926133504"><ele>0.000000</ele><name>Blue Ridge</name><cmt></cmt><desc></desc><sym>Waypoint</sym></wpt><wpt lat="37.673906397" lon="-79.334557338"><ele>0.000000</ele><name>Blue Ridge</name><cmt></cmt><desc></desc><sym>Waypoint</sym></wpt><wpt lat="37.685324201" lon="-79.271657679"><ele>0.000000</ele><name>USFS 38</name><cmt></cmt><desc></desc><sym>Waypoint</sym></wpt><wpt lat="38.302139953" lon="-78.622883409"><ele>0.000000</ele><name>Skyline Dr</name><cmt></cmt><desc></desc><sym>Waypoint</sym></wpt><wpt lat="38.738838750" lon="-78.308586495"><ele>0.000000</ele><name>Elk Wallow</name><cmt></cmt><desc></desc><sym>Waypoint</sym></wpt><wpt lat="38.775090136" lon="-78.210824501"><ele>0.000000</ele><name>Skyline Dr</name><cmt></cmt><desc></desc><sym>Waypoint</sym></wpt><wpt lat="39.404762039" lon="-77.640008521"><ele>0.000000</ele><name>Gathland S</name><cmt></cmt><desc></desc><sym>Waypoint</sym></wpt><wpt lat="39.329922469" lon="-77.681966139"><ele>0.000000</ele><name>Keep Tryst</name><cmt></cmt><desc></desc><sym>Waypoint</sym></wpt><wpt lat="39.527813333" lon="-77.612731775"><ele>0.000000</ele><name>Boonsboro</name><cmt></cmt><desc></desc><sym>Waypoint</sym></wpt><wpt lat="39.498965636" lon="-77.623494550"><ele>0.000000</ele><name>Washington</name><cmt></cmt><desc></desc><sym>Waypoint</sym></wpt><wpt lat="39.498169349" lon="-77.620648486"><ele>0.000000</ele><name>Washington</name><cmt></cmt><desc></desc><sym>Waypoint</sym></wpt><wpt lat="38.059764577" lon="-78.817582190"><ele>0.000000</ele><name>Skyline Dr</name><cmt></cmt><desc></desc><sym>Waypoint</sym></wpt><wpt lat="37.968538609" lon="-78.896407388"><ele>0.000000</ele><name>Blue Ridge</name><cmt></cmt><desc></desc><sym>Waypoint</sym></wpt><wpt lat="37.457625913" lon="-80.017272753"><ele>0.000000</ele><name>VA 779</name><cmt></cmt><desc></desc><sym>Waypoint</sym></wpt><wpt lat="37.424806239" lon="-79.757322796"><ele>0.000000</ele><name>Blue Ridge</name><cmt></cmt><desc></desc><sym>Waypoint</sym></wpt><wpt lat="37.510697206" lon="-79.522581997"><ele>0.000000</ele><name>USFS 812</name><cmt></cmt><desc></desc><sym>Waypoint</sym></wpt><wpt lat="37.440939894" lon="-79.734716958"><ele>0.000000</ele><name>Blue Ridge</name><cmt></cmt><desc></desc><sym>Waypoint</sym></wpt><wpt lat="37.445594495" lon="-79.726239690"><ele>0.000000</ele><name>Blue Ridge</name><cmt></cmt><desc></desc><sym>Waypoint</sym></wpt><wpt lat="37.474572788" lon="-79.691907839"><ele>0.000000</ele><name>Blue Ridge</name><cmt></cmt><desc></desc><sym>Waypoint</sym></wpt><wpt lat="37.479673047" lon="-79.682494030"><ele>0.000000</ele><name>Blue Ridge</name><cmt></cmt><desc></desc><sym>Waypoint</sym></wpt><wpt lat="37.484499068" lon="-79.668405492"><ele>0.000000</ele><name>VA 43</name><cmt></cmt><desc></desc><sym>Waypoint</sym></wpt><wpt lat="37.674055749" lon="-79.334407271"><ele>0.000000</ele><name>Blue Ridge</name><cmt></cmt><desc></desc><sym>Waypoint</sym></wpt><wpt lat="37.255885681" lon="-80.855462727"><ele>0.000000</ele><name>VA 663 (Su</name><cmt></cmt><desc></desc><sym>Waypoint</sym></wpt><wpt lat="37.387995351" lon="-80.468990026"><ele>0.000000</ele><name>VA 632 And</name><cmt></cmt><desc></desc><sym>Waypoint</sym></wpt><wpt lat="37.390350001" lon="-80.196071185"><ele>0.000000</ele><name>VA 620</name><cmt></cmt><desc></desc><sym>Waypoint</sym></wpt><wpt lat="37.137235476" lon="-81.133070249"><ele>0.000000</ele><name>US 21 &amp; 52</name><cmt></cmt><desc></desc><sym>Waypoint</sym></wpt><wpt lat="37.102780472" lon="-81.202210889"><ele>0.000000</ele><name>VA 615</name><cmt></cmt><desc></desc><sym>Waypoint</sym></wpt><wpt lat="36.720432022" lon="-81.461553203"><ele>0.000000</ele><name>VA 650</name><cmt></cmt><desc></desc><sym>Waypoint</sym></wpt><wpt lat="36.786739940" lon="-81.471669943"><ele>0.000000</ele><name>VA 601</name><cmt></cmt><desc></desc><sym>Waypoint</sym></wpt><wpt lat="36.811578730" lon="-81.421454126"><ele>0.000000</ele><name>VA 16 (Mt</name><cmt></cmt><desc></desc><sym>Waypoint</sym></wpt><wpt lat="36.538797863" lon="-81.948916058"><ele>0.000000</ele><name>US 421</name><cmt></cmt><desc></desc><sym>Waypoint</sym></wpt><wpt lat="36.480002776" lon="-81.962090287"><ele>0.000000</ele><name>TN 91</name><cmt></cmt><desc></desc><sym>Waypoint</sym></wpt><wpt lat="36.538949490" lon="-81.948269763"><ele>0.000000</ele><name>US 421</name><cmt></cmt><desc></desc><sym>Waypoint</sym></wpt><wpt lat="36.648055696" lon="-81.672043389"><ele>0.000000</ele><name>Whitetop L</name><cmt></cmt><desc></desc><sym>Waypoint</sym></wpt><wpt lat="36.645010337" lon="-81.736296560"><ele>0.000000</ele><name>US 58</name><cmt></cmt><desc></desc><sym>Waypoint</sym></wpt><wpt lat="36.328671630" lon="-82.111459613"><ele>0.000000</ele><name>Watauga Da</name><cmt></cmt><desc></desc><sym>Waypoint</sym></wpt><wpt lat="36.301947866" lon="-82.128914194"><ele>0.000000</ele><name>US 321 Che</name><cmt></cmt><desc></desc><sym>Waypoint</sym></wpt><wpt lat="36.110820867" lon="-82.360929175"><ele>0.000000</ele><name>TN 395 (In</name><cmt></cmt><desc></desc><sym>Waypoint</sym></wpt><wpt lat="35.986938104" lon="-82.787204845"><ele>0.000000</ele><name>TN 70 (All</name><cmt></cmt><desc></desc><sym>Waypoint</sym></wpt><wpt lat="35.556817452" lon="-83.496121104"><ele>0.000000</ele><name>Clingmans</name><cmt></cmt><desc></desc><sym>Waypoint</sym></wpt><wpt lat="35.120582702" lon="-83.547172630"><ele>0.000000</ele><name>Winding St</name><cmt></cmt><desc></desc><sym>Waypoint</sym></wpt><wpt lat="35.153082229" lon="-83.580965504"><ele>0.000000</ele><name>Wayah Cres</name><cmt></cmt><desc></desc><sym>Waypoint</sym></wpt><wpt lat="35.094035298" lon="-83.522403369"><ele>0.000000</ele><name>USFS 67 (R</name><cmt></cmt><desc></desc><sym>Waypoint</sym></wpt><wpt lat="34.652135448" lon="-84.032130579"><ele>0.000000</ele><name>USFS 42 (G</name><cmt></cmt><desc></desc><sym>Waypoint</sym></wpt><wpt lat="34.742389406" lon="-83.921229577"><ele>0.000000</ele><name>Reese Stat</name><cmt></cmt><desc></desc><sym>Waypoint</sym></wpt><wpt lat="35.027326149" lon="-83.506537779"><ele>0.000000</ele><name>No Officia</name><cmt></cmt><desc></desc><sym>Waypoint</sym></wpt><wpt lat="35.021798848" lon="-83.503484881"><ele>0.000000</ele><name>No Officia</name><cmt></cmt><desc></desc><sym>Waypoint</sym></wpt><wpt lat="35.074931907" lon="-83.527813940"><ele>0.000000</ele><name>No Officia</name><cmt></cmt><desc></desc><sym>Waypoint</sym></wpt><wpt lat="35.163129478" lon="-83.584946529"><ele>0.000000</ele><name>No Officia</name><cmt></cmt><desc></desc><sym>Waypoint</sym></wpt><wpt lat="35.451866193" lon="-83.801434670"><ele>0.000000</ele><name>Fontana Da</name><cmt></cmt><desc></desc><sym>Waypoint</sym></wpt><wpt lat="35.605303935" lon="-83.770551429"><ele>0.000000</ele><name>Cades Cove</name><cmt></cmt><desc></desc><sym>Waypoint</sym></wpt><wpt lat="35.794428136" lon="-82.961981162"><ele>0.000000</ele><name>NC 1182 (M</name><cmt></cmt><desc></desc><sym>Waypoint</sym></wpt><wpt lat="40.537888328" lon="-76.123567421"><ele>0.000000</ele><name>Cross Moun</name><cmt></cmt><desc></desc><sym>Waypoint</sym></wpt><wpt lat="40.477483256" lon="-76.626219676"><ele>0.000000</ele><name>Cold Sprin</name><cmt></cmt><desc></desc><sym>Waypoint</sym></wpt><wpt lat="40.583637451" lon="-75.941951532"><ele>0.000000</ele><name>Windsor Fu</name><cmt></cmt><desc></desc><sym>Waypoint</sym></wpt><wpt lat="39.743881792" lon="-77.489049272"><ele>0.000000</ele><name>Mentzer Ga</name><cmt></cmt><desc></desc><sym>Waypoint</sym></wpt><wpt lat="40.382801406" lon="-77.033326745"><ele>0.000000</ele><name>No Officia</name><cmt></cmt><desc></desc><sym>Waypoint</sym></wpt><wpt lat="40.098249836" lon="-77.128685911"><ele>0.000000</ele><name>No Officia</name><cmt></cmt><desc></desc><sym>Waypoint</sym></wpt><wpt lat="40.141404851" lon="-77.115124897"><ele>0.000000</ele><name>No Officia</name><cmt></cmt><desc></desc><sym>Waypoint</sym></wpt><wpt lat="40.141725357" lon="-77.116311749"><ele>0.000000</ele><name>No Officia</name><cmt></cmt><desc></desc><sym>Waypoint</sym></wpt><wpt lat="40.860841798" lon="-75.292584603"><ele>0.000000</ele><name>No Officia</name><cmt></cmt><desc></desc><sym>Waypoint</sym></wpt><wpt lat="40.031272273" lon="-77.311946854"><ele>0.000000</ele><name>PA 233</name><cmt></cmt><desc></desc><sym>Waypoint</sym></wpt><wpt lat="41.089424233" lon="-74.913112581"><ele>0.000000</ele><name>Blue Mount</name><cmt></cmt><desc></desc><sym>Waypoint</sym></wpt><wpt lat="41.252571608" lon="-74.689536248"><ele>0.000000</ele><name>Deckertown</name><cmt></cmt><desc></desc><sym>Waypoint</sym></wpt><wpt lat="41.214722038" lon="-74.420528335"><ele>0.000000</ele><name>Barrett Ro</name><cmt></cmt><desc></desc><sym>Waypoint</sym></wpt><wpt lat="41.195602941" lon="-74.371627308"><ele>0.000000</ele><name>Brady Road</name><cmt></cmt><desc></desc><sym>Waypoint</sym></wpt><wpt lat="41.266347594" lon="-74.193913314"><ele>0.000000</ele><name>East Momba</name><cmt></cmt><desc></desc><sym>Waypoint</sym></wpt><wpt lat="41.637626885" lon="-73.530614764"><ele>0.000000</ele><name>Duell Holl</name><cmt></cmt><desc></desc><sym>Waypoint</sym></wpt><wpt lat="41.540974247" lon="-73.753007269"><ele>0.000000</ele><name>Hosner Mou</name><cmt></cmt><desc></desc><sym>Waypoint</sym></wpt><wpt lat="41.399726303" lon="-73.876810074"><ele>0.000000</ele><name>South High</name><cmt></cmt><desc></desc><sym>Waypoint</sym></wpt><wpt lat="41.420670355" lon="-73.868743996"><ele>0.000000</ele><name>Dennytown</name><cmt></cmt><desc></desc><sym>Waypoint</sym></wpt><wpt lat="41.311710356" lon="-74.007397479"><ele>0.000000</ele><name>Bear Mount</name><cmt></cmt><desc></desc><sym>Waypoint</sym></wpt><wpt lat="41.931005528" lon="-73.364302187"><ele>0.000000</ele><name>US 7 &amp; CT</name><cmt></cmt><desc></desc><sym>Waypoint</sym></wpt><wpt lat="42.049510852" lon="-73.466996330"><ele>0.000000</ele><name>East Stree</name><cmt></cmt><desc></desc><sym>Waypoint</sym></wpt><wpt lat="42.107050768" lon="-73.435720335"><ele>0.000000</ele><name>Guilder Po</name><cmt></cmt><desc></desc><sym>Waypoint</sym></wpt><wpt lat="41.821341419" lon="-73.376059828"><ele>0.000000</ele><name>No Officia</name><cmt></cmt><desc></desc><sym>Waypoint</sym></wpt><wpt lat="41.833183925" lon="-73.383510784"><ele>0.000000</ele><name>No Officia</name><cmt></cmt><desc></desc><sym>Waypoint</sym></wpt><wpt lat="42.174844576" lon="-73.293981494"><ele>0.000000</ele><name>Lake Buel</name><cmt></cmt><desc></desc><sym>Waypoint</sym></wpt><wpt lat="42.638128391" lon="-73.165616957"><ele>0.000000</ele><name>Greylock S</name><cmt></cmt><desc></desc><sym>Waypoint</sym></wpt><wpt lat="43.061221804" lon="-72.967641475"><ele>0.000000</ele><name>Stratton-A</name><cmt></cmt><desc></desc><sym>Waypoint</sym></wpt><wpt lat="42.154943002" lon="-73.341134329"><ele>0.000000</ele><name>Homes Road</name><cmt></cmt><desc></desc><sym>Waypoint</sym></wpt><wpt lat="42.602079990" lon="-73.201296750"><ele>0.000000</ele><name>No Officia</name><cmt></cmt><desc></desc><sym>Waypoint</sym></wpt><wpt lat="43.455732524" lon="-72.934135909"><ele>0.000000</ele><name>VT 140</name><cmt></cmt><desc></desc><sym>Waypoint</sym></wpt><wpt lat="43.457047277" lon="-72.932488742"><ele>0.000000</ele><name>VT 140</name><cmt></cmt><desc></desc><sym>Waypoint</sym></wpt><wpt lat="43.679711961" lon="-72.788435442"><ele>0.000000</ele><name>Thunder Fa</name><cmt></cmt><desc></desc><sym>Waypoint</sym></wpt><wpt lat="43.691216095" lon="-72.720353522"><ele>0.000000</ele><name>Stony Broo</name><cmt></cmt><desc></desc><sym>Waypoint</sym></wpt><wpt lat="43.720867320" lon="-72.413291876"><ele>0.000000</ele><name>Podunk Roa</name><cmt></cmt><desc></desc><sym>Waypoint</sym></wpt><wpt lat="43.680340394" lon="-72.527318700"><ele>0.000000</ele><name>Pomfret</name><cmt></cmt><desc></desc><sym>Waypoint</sym></wpt><wpt lat="43.686999815" lon="-72.500286075"><ele>0.000000</ele><name>Cloudland</name><cmt></cmt><desc></desc><sym>Waypoint</sym></wpt><wpt lat="43.705486701" lon="-72.462809676"><ele>0.000000</ele><name>Joe Ranger</name><cmt></cmt><desc></desc><sym>Waypoint</sym></wpt><wpt lat="43.704032125" lon="-72.212073105"><ele>0.000000</ele><name>Etna Hanov</name><cmt></cmt><desc></desc><sym>Waypoint</sym></wpt><wpt lat="44.167198272" lon="-71.386059966"><ele>0.000000</ele><name>Ethan Pond</name><cmt></cmt><desc></desc><sym>Waypoint</sym></wpt><wpt lat="44.281549828" lon="-71.253244228"><ele>0.000000</ele><name>No Officia</name><cmt></cmt><desc></desc><sym>Waypoint</sym></wpt><wpt lat="44.142083506" lon="-71.681560620"><ele>0.000000</ele><name>Old Bridle</name><cmt></cmt><desc></desc><sym>Waypoint</sym></wpt><wpt lat="44.170911289" lon="-71.388151446"><ele>0.000000</ele><name>US 302</name><cmt></cmt><desc></desc><sym>Waypoint</sym></wpt><wpt lat="44.257559098" lon="-71.252522486"><ele>0.000000</ele><name>Pinkham No</name><cmt></cmt><desc></desc><sym>Waypoint</sym></wpt><wpt lat="44.363293919" lon="-71.177283792"><ele>0.000000</ele><name>NH 16</name><cmt></cmt><desc></desc><sym>Waypoint</sym></wpt><wpt lat="44.100771874" lon="-71.681576540"><ele>0.000000</ele><name>NH 3</name><cmt></cmt><desc></desc><sym>Waypoint</sym></wpt><wpt lat="38.878034737" lon="-78.150680578"><ele>0.000000</ele><name>VA 522</name><cmt></cmt><desc></desc><sym>Waypoint</sym></wpt><wpt lat="38.824027802" lon="-78.170401899"><ele>0.000000</ele><name>Compton Ga</name><cmt></cmt><desc></desc><sym>Waypoint</sym></wpt><wpt lat="40.633859458" lon="-75.960951828"><ele>0.000000</ele><name>Hawk Mount</name><cmt></cmt><desc></desc><sym>Waypoint</sym></wpt><wpt lat="40.481021866" lon="-76.533926896"><ele>0.000000</ele><name>72</name><cmt></cmt><desc></desc><sym>Waypoint</sym></wpt><wpt lat="40.806197244" lon="-75.534827423"><ele>0.000000</ele><name>Little Gap</name><cmt></cmt><desc></desc><sym>Waypoint</sym></wpt><wpt lat="40.825560554" lon="-75.414417651"><ele>0.000000</ele><name>Smith Gap</name><cmt></cmt><desc></desc><sym>Waypoint</sym></wpt><wpt lat="40.273970565" lon="-77.099504241"><ele>0.000000</ele><name>Sherwood D</name><cmt></cmt><desc></desc><sym>Waypoint</sym></wpt><wpt lat="40.071899480" lon="-77.203947590"><ele>0.000000</ele><name>Green Moun</name><cmt></cmt><desc></desc><sym>Waypoint</sym></wpt><wpt lat="40.077927789" lon="-77.194712410"><ele>0.000000</ele><name>PA 34 (Hun</name><cmt></cmt><desc></desc><sym>Waypoint</sym></wpt><wpt lat="40.031578485" lon="-77.300116108"><ele>0.000000</ele><name>Pine Grove</name><cmt></cmt><desc></desc><sym>Waypoint</sym></wpt><wpt lat="40.979897829" lon="-75.141993281"><ele>0.000000</ele><name>Delaware W</name><cmt></cmt><desc></desc><sym>Waypoint</sym></wpt><wpt lat="43.372659302" lon="-72.962782011"><ele>0.000000</ele><name>Danby-Land</name><cmt></cmt><desc></desc><sym>Waypoint</sym></wpt><wpt lat="43.371719552" lon="-72.961539705"><ele>0.000000</ele><name>Danby-Land</name><cmt></cmt><desc></desc><sym>Waypoint</sym></wpt><wpt lat="43.705439284" lon="-72.229524044"><ele>0.000000</ele><name>Trescot Ro</name><cmt></cmt><desc></desc><sym>Waypoint</sym></wpt><wpt lat="43.666331455" lon="-72.849169993"><ele>0.000000</ele><name>US Rte 4</name><cmt></cmt><desc></desc><sym>Waypoint</sym></wpt><wpt lat="42.630627791" lon="-73.177990512"><ele>0.000000</ele><name>Greylock D</name><cmt></cmt><desc></desc><sym>Waypoint</sym></wpt><wpt lat="42.633844494" lon="-73.170799189"><ele>0.000000</ele><name>Gould Trai</name><cmt></cmt><desc></desc><sym>Waypoint</sym></wpt><wpt lat="42.669350593" lon="-73.167670824"><ele>0.000000</ele><name>Notch Road</name><cmt></cmt><desc></desc><sym>Waypoint</sym></wpt><wpt lat="42.687750214" lon="-73.159694682"><ele>0.000000</ele><name>Pattison R</name><cmt></cmt><desc></desc><sym>Waypoint</sym></wpt><wpt lat="34.677718885" lon="-83.999616245"><ele>0.000000</ele><name>Woody Gap</name><cmt></cmt><desc></desc><sym>Waypoint</sym></wpt><wpt lat="36.302101699" lon="-82.128602899"><ele>0.000000</ele><name>Shook Bran</name><cmt></cmt><desc></desc><sym>Waypoint</sym></wpt><wpt lat="36.264261816" lon="-82.123110513"><ele>0.000000</ele><name>Dennis Cov</name><cmt></cmt><desc></desc><sym>Waypoint</sym></wpt><wpt lat="36.217486799" lon="-82.038260202"><ele>0.000000</ele><name>Bitter End</name><cmt></cmt><desc></desc><sym>Waypoint</sym></wpt><wpt lat="36.222109318" lon="-82.004293149"><ele>0.000000</ele><name>Walnut Mou</name><cmt></cmt><desc></desc><sym>Waypoint</sym></wpt><wpt lat="36.204227741" lon="-81.996857100"><ele>0.000000</ele><name>Campbell T</name><cmt></cmt><desc></desc><sym>Waypoint</sym></wpt><wpt lat="35.792138455" lon="-82.962056219"><ele>0.000000</ele><name>State Road</name><cmt></cmt><desc></desc><sym>Waypoint</sym></wpt><wpt lat="35.773147041" lon="-82.995881531"><ele>0.000000</ele><name>Brown Gap</name><cmt></cmt><desc></desc><sym>Waypoint</sym></wpt><wpt lat="35.968900141" lon="-82.540212200"><ele>0.000000</ele><name>Street Gap</name><cmt></cmt><desc></desc><sym>Waypoint</sym></wpt><wpt lat="36.031746127" lon="-82.420023280"><ele>0.000000</ele><name>Spivey Gap</name><cmt></cmt><desc></desc><sym>Waypoint</sym></wpt><wpt lat="35.119721183" lon="-83.548094813"><ele>0.000000</ele><name>Winding St</name><cmt></cmt><desc></desc><sym>Waypoint</sym></wpt><wpt lat="35.098023761" lon="-83.526636295"><ele>0.000000</ele><name>Wallace Ga</name><cmt></cmt><desc></desc><sym>Waypoint</sym></wpt><wpt lat="37.412194352" lon="-80.522584780"><ele>0.000000</ele><name>Wind Rock</name><cmt></cmt><desc></desc><sym>Waypoint</sym></wpt><wpt lat="39.804741348" lon="-77.479629149"><ele>0.000000</ele><name>Tumbling R</name><cmt></cmt><desc></desc><sym>Waypoint</sym></wpt><wpt lat="40.037484131" lon="-77.338313173"><ele>0.000000</ele><name>Old Shippe</name><cmt></cmt><desc></desc><sym>Waypoint</sym></wpt><wpt lat="40.133896622" lon="-77.117013176"><ele>0.000000</ele><name>No Officia</name><cmt></cmt><desc></desc><sym>Waypoint</sym></wpt><wpt lat="40.146699690" lon="-77.122425196"><ele>0.000000</ele><name>No Officia</name><cmt></cmt><desc></desc><sym>Waypoint</sym></wpt><wpt lat="37.353718011" lon="-80.765491421"><ele>0.000000</ele><name>VA 614</name><cmt></cmt><desc></desc><sym>Waypoint</sym></wpt><wpt lat="37.901789425" lon="-78.985346262"><ele>0.000000</ele><name>VA 664 (Re</name><cmt></cmt><desc></desc><sym>Waypoint</sym></wpt><wpt lat="37.907250740" lon="-78.978977639"><ele>0.000000</ele><name>Blue Ridge</name><cmt></cmt><desc></desc><sym>Waypoint</sym></wpt><wpt lat="37.941334564" lon="-78.936644512"><ele>0.000000</ele><name>Dripping R</name><cmt></cmt><desc></desc><sym>Waypoint</sym></wpt><wpt lat="35.410546349" lon="-83.765720157"><ele>0.000000</ele><name>Yellow Cre</name><cmt></cmt><desc></desc><sym>Waypoint</sym></wpt><wpt lat="35.441413307" lon="-83.795484678"><ele>0.000000</ele><name>Fontana Vi</name><cmt></cmt><desc></desc><sym>Waypoint</sym></wpt><wpt lat="35.449099391" lon="-83.796433398"><ele>0.000000</ele><name>Fontana Da</name><cmt></cmt><desc></desc><sym>Waypoint</sym></wpt><wpt lat="34.958745522" lon="-83.596282846"><ele>0.000000</ele><name>Blue Ridge</name><cmt></cmt><desc></desc><sym>Waypoint</sym></wpt><wpt lat="34.912224768" lon="-83.618731867"><ele>0.000000</ele><name>Dicks Cree</name><cmt></cmt><desc></desc><sym>Waypoint</sym></wpt><wpt lat="43.257673797" lon="-72.938718819"><ele>0.000000</ele><name>USFS 21</name><cmt></cmt><desc></desc><sym>Waypoint</sym></wpt><wpt lat="45.290243648" lon="-69.535079528"><ele>0.000000</ele><name>Pleasant R</name><cmt></cmt><desc></desc><sym>Waypoint</sym></wpt><wpt lat="45.285882839" lon="-69.586082476"><ele>0.000000</ele><name>Shirley-Bl</name><cmt></cmt><desc></desc><sym>Waypoint</sym></wpt><wpt lat="45.238784023" lon="-69.995659480"><ele>0.000000</ele><name>ME 201</name><cmt></cmt><desc></desc><sym>Waypoint</sym></wpt><wpt lat="43.711671736" lon="-72.323809302"><ele>0.000000</ele><name>Elm Street</name><cmt></cmt><desc></desc><sym>Waypoint</sym></wpt><wpt lat="42.144456125" lon="-73.359988234"><ele>0.000000</ele><name>Housatonic</name><cmt></cmt><desc></desc><sym>Waypoint</sym></wpt><wpt lat="42.184429807" lon="-73.290601397"><ele>0.000000</ele><name>MA 23</name><cmt></cmt><desc></desc><sym>Waypoint</sym></wpt><wpt lat="41.994189255" lon="-73.426868838"><ele>0.000000</ele><name>CT 41</name><cmt></cmt><desc></desc><sym>Waypoint</sym></wpt><wpt lat="43.953895192" lon="-71.945058110"><ele>0.000000</ele><name>NH 25 C</name><cmt></cmt><desc></desc><sym>Waypoint</sym></wpt><wpt lat="43.901549768" lon="-71.984761879"><ele>0.000000</ele><name>NH 25A tra</name><cmt></cmt><desc></desc><sym>Waypoint</sym></wpt><wpt lat="40.744799550" lon="-75.738815602"><ele>0.000000</ele><name>Bake Oven</name><cmt></cmt><desc></desc><sym>Waypoint</sym></wpt><wpt lat="40.707942336" lon="-75.807670583"><ele>0.000000</ele><name>Route 309</name><cmt></cmt><desc></desc><sym>Waypoint</sym></wpt><wpt lat="41.603179315" lon="-73.611447343"><ele>0.000000</ele><name>West Dover</name><cmt></cmt><desc></desc><sym>Waypoint</sym></wpt><wpt lat="41.592875290" lon="-73.587698581"><ele>0.000000</ele><name>NY 22</name><cmt></cmt><desc></desc><sym>Waypoint</sym></wpt><wpt lat="41.585896171" lon="-73.652907835"><ele>0.000000</ele><name>Old Rt 55</name><cmt></cmt><desc></desc><sym>Waypoint</sym></wpt><wpt lat="38.694420156" lon="-78.319753388"><ele>0.000000</ele><name>Beahms Gap</name><cmt></cmt><desc></desc><sym>Waypoint</sym></wpt><wpt lat="38.659991251" lon="-78.321075895"><ele>0.000000</ele><name>No Officia</name><cmt></cmt><desc></desc><sym>Waypoint</sym></wpt><wpt lat="40.694431994" lon="-75.842093661"><ele>0.000000</ele><name>Fort Frank</name><cmt></cmt><desc></desc><sym>Waypoint</sym></wpt><wpt lat="40.183623725" lon="-77.111448095"><ele>0.000000</ele><name>Lisburn</name><cmt></cmt><desc></desc><sym>Waypoint</sym></wpt><wpt lat="40.173096443" lon="-77.120897361"><ele>0.000000</ele><name>Kramer</name><cmt></cmt><desc></desc><sym>Waypoint</sym></wpt><wpt lat="40.147907769" lon="-77.124533756"><ele>0.000000</ele><name>Fishing Pa</name><cmt></cmt><desc></desc><sym>Waypoint</sym></wpt><wpt lat="38.605742484" lon="-78.366490102"><ele>0.000000</ele><name>Little Sto</name><cmt></cmt><desc></desc><sym>Waypoint</sym></wpt><wpt lat="39.321764050" lon="-77.743091284"><ele>0.000000</ele><name>Shenandoah</name><cmt></cmt><desc></desc><sym>Waypoint</sym></wpt><wpt lat="39.116539676" lon="-77.852310295"><ele>0.000000</ele><name>Rt. 679 /</name><cmt></cmt><desc></desc><sym>Waypoint</sym></wpt><wpt lat="39.017132443" lon="-77.962217184"><ele>0.000000</ele><name>VA 601</name><cmt></cmt><desc></desc><sym>Waypoint</sym></wpt><wpt lat="41.572733783" lon="-73.680850098"><ele>0.000000</ele><name>Depot Hill</name><cmt></cmt><desc></desc><sym>Waypoint</sym></wpt><wpt lat="41.588034794" lon="-73.661659143"><ele>0.000000</ele><name>Old NY 55</name><cmt></cmt><desc></desc><sym>Waypoint</sym></wpt><wpt lat="41.589894259" lon="-73.659144627"><ele>0.000000</ele><name>NY 55</name><cmt></cmt><desc></desc><sym>Waypoint</sym></wpt><wpt lat="37.379364846" lon="-80.250108715"><ele>0.000000</ele><name>VA 621</name><cmt></cmt><desc></desc><sym>Waypoint</sym></wpt><wpt lat="37.418739731" lon="-80.604661256"><ele>0.000000</ele><name>VA 635</name><cmt></cmt><desc></desc><sym>Waypoint</sym></wpt><wpt lat="37.146019643" lon="-81.008341680"><ele>0.000000</ele><name>VA 611</name><cmt></cmt><desc></desc><sym>Waypoint</sym></wpt><wpt lat="37.390683931" lon="-79.906190968"><ele>0.000000</ele><name>US 220 Com</name><cmt></cmt><desc></desc><sym>Waypoint</sym></wpt><wpt lat="37.403766811" lon="-79.889869820"><ele>0.000000</ele><name>US 11</name><cmt></cmt><desc></desc><sym>Waypoint</sym></wpt><wpt lat="37.517514087" lon="-79.510693718"><ele>0.000000</ele><name>County Roa</name><cmt></cmt><desc></desc><sym>Waypoint</sym></wpt><wpt lat="36.763196395" lon="-81.493111814"><ele>0.000000</ele><name>VA 670</name><cmt></cmt><desc></desc><sym>Waypoint</sym></wpt><wpt lat="36.696570527" lon="-81.506289831"><ele>0.000000</ele><name>VA 603 (Fo</name><cmt></cmt><desc></desc><sym>Waypoint</sym></wpt><wpt lat="36.669942720" lon="-81.486834007"><ele>0.000000</ele><name>Scales</name><cmt></cmt><desc></desc><sym>Waypoint</sym></wpt><wpt lat="36.984364315" lon="-81.405595962"><ele>0.000000</ele><name>VA 42</name><cmt></cmt><desc></desc><sym>Waypoint</sym></wpt><wpt lat="37.022729044" lon="-81.424944371"><ele>0.000000</ele><name>USFS 222</name><cmt></cmt><desc></desc><sym>Waypoint</sym></wpt><wpt lat="37.054555869" lon="-81.378717167"><ele>0.000000</ele><name>Walker Gap</name><cmt></cmt><desc></desc><sym>Waypoint</sym></wpt><wpt lat="36.637269167" lon="-81.640555460"><ele>0.000000</ele><name>VA 601</name><cmt></cmt><desc></desc><sym>Waypoint</sym></wpt><wpt lat="36.646010668" lon="-81.583352110"><ele>0.000000</ele><name>Elk Garden</name><cmt></cmt><desc></desc><sym>Waypoint</sym></wpt><wpt lat="36.870156895" lon="-81.356382525"><ele>0.000000</ele><name>Settlers M</name><cmt></cmt><desc></desc><sym>Waypoint</sym></wpt><wpt lat="37.597075546" lon="-79.389424233"><ele>0.000000</ele><name>Boat Lanch</name><cmt></cmt><desc></desc><sym>Waypoint</sym></wpt><wpt lat="37.559520714" lon="-79.458622821"><ele>0.000000</ele><name>Petites Ga</name><cmt></cmt><desc></desc><sym>Waypoint</sym></wpt><wpt lat="35.889694239" lon="-82.832578310"><ele>0.000000</ele><name>Trail head</name><cmt></cmt><desc></desc><sym>Waypoint</sym></wpt><wpt lat="36.481269479" lon="-81.960324885"><ele>0.000000</ele><name>TN 91/Cros</name><cmt></cmt><desc></desc><sym>Waypoint</sym></wpt><wpt lat="36.105115129" lon="-82.130949851"><ele>0.000000</ele><name>Cloudlands</name><cmt></cmt><desc></desc><sym>Waypoint</sym></wpt><wpt lat="34.725914034" lon="-83.847669161"><ele>0.000000</ele><name>Tesnatee G</name><cmt></cmt><desc></desc><sym>Waypoint</sym></wpt><wpt lat="34.725764557" lon="-83.839739005"><ele>0.000000</ele><name>GA 348</name><cmt></cmt><desc></desc><sym>Waypoint</sym></wpt><wpt lat="36.010407345" lon="-82.608557807"><ele>0.000000</ele><name>Devil's Fo</name><cmt></cmt><desc></desc><sym>Waypoint</sym></wpt><wpt lat="36.106479318" lon="-82.110410074"><ele>0.000000</ele><name>Carvers Ga</name><cmt></cmt><desc></desc><sym>Waypoint</sym></wpt><wpt lat="36.106512243" lon="-82.111210593"><ele>0.000000</ele><name>Carvers Ga</name><cmt></cmt><desc></desc><sym>Waypoint</sym></wpt><wpt lat="36.143217035" lon="-82.233253551"><ele>0.000000</ele><name>Iron Mount</name><cmt></cmt><desc></desc><sym>Waypoint</sym></wpt><wpt lat="36.136755584" lon="-82.140922274"><ele>0.000000</ele><name>Cove Creek</name><cmt></cmt><desc></desc><sym>Waypoint</sym></wpt><wpt lat="35.178301457" lon="-83.562436568"><ele>0.000000</ele><name>Wayah Bald</name><cmt></cmt><desc></desc><sym>Waypoint</sym></wpt><wpt lat="35.222304149" lon="-83.562256456"><ele>0.000000</ele><name>Burningtow</name><cmt></cmt><desc></desc><sym>Waypoint</sym></wpt><wpt lat="34.801544231" lon="-83.742911260"><ele>0.000000</ele><name>GA 75 (Uni</name><cmt></cmt><desc></desc><sym>Waypoint</sym></wpt><wpt lat="35.052561723" lon="-83.480222740"><ele>0.000000</ele><name>Albert Mou</name><cmt></cmt><desc></desc><sym>Waypoint</sym></wpt><wpt lat="41.961114153" lon="-73.373846181"><ele>0.000000</ele><name>Housatanic</name><cmt></cmt><desc></desc><sym>Waypoint</sym></wpt><wpt lat="41.932615029" lon="-73.363441589"><ele>0.000000</ele><name>US 7 &amp; CT</name><cmt></cmt><desc></desc><sym>Waypoint</sym></wpt><wpt lat="42.250226538" lon="-73.227423962"><ele>0.000000</ele><name>Fernside/J</name><cmt></cmt><desc></desc><sym>Waypoint</sym></wpt><wpt lat="42.252750628" lon="-73.178966338"><ele>0.000000</ele><name>Webster Ro</name><cmt></cmt><desc></desc><sym>Waypoint</sym></wpt><wpt lat="42.238229881" lon="-73.209432837"><ele>0.000000</ele><name>Jerusalem</name><cmt></cmt><desc></desc><sym>Waypoint</sym></wpt><wpt lat="42.235447291" lon="-73.194518710"><ele>0.000000</ele><name>Tyringham</name><cmt></cmt><desc></desc><sym>Waypoint</sym></wpt><wpt lat="42.481887392" lon="-73.178170012"><ele>0.000000</ele><name>Gulf Road</name><cmt></cmt><desc></desc><sym>Waypoint</sym></wpt><wpt lat="42.456516253" lon="-73.161863095"><ele>0.000000</ele><name>Grange Hal</name><cmt></cmt><desc></desc><sym>Waypoint</sym></wpt><wpt lat="42.409538136" lon="-73.149759429"><ele>0.000000</ele><name>Blotz Road</name><cmt></cmt><desc></desc><sym>Waypoint</sym></wpt><wpt lat="42.377240953" lon="-73.150819091"><ele>0.000000</ele><name>Pittsfield</name><cmt></cmt><desc></desc><sym>Waypoint</sym></wpt><wpt lat="42.361818884" lon="-73.153450367"><ele>0.000000</ele><name>West Branc</name><cmt></cmt><desc></desc><sym>Waypoint</sym></wpt><wpt lat="42.333265575" lon="-73.162260185"><ele>0.000000</ele><name>County Roa</name><cmt></cmt><desc></desc><sym>Waypoint</sym></wpt><wpt lat="42.296931385" lon="-73.150599846"><ele>0.000000</ele><name>tyne rd pu</name><cmt></cmt><desc></desc><sym>Waypoint</sym></wpt><wpt lat="42.293035749" lon="-73.161561140"><ele>0.000000</ele><name>US 20</name><cmt></cmt><desc></desc><sym>Waypoint</sym></wpt><wpt lat="42.274656396" lon="-73.183207700"><ele>0.000000</ele><name>Goose Pond</name><cmt></cmt><desc></desc><sym>Waypoint</sym></wpt><wpt lat="43.689578523" lon="-72.673891423"><ele>0.000000</ele><name>No Officia</name><cmt></cmt><desc></desc><sym>Waypoint</sym></wpt><wpt lat="42.775179578" lon="-73.133127478"><ele>0.000000</ele><name>County Roa</name><cmt></cmt><desc></desc><sym>Waypoint</sym></wpt><wpt lat="43.054111475" lon="-72.989851018"><ele>0.000000</ele><name>road shold</name><cmt></cmt><desc></desc><sym>Waypoint</sym></wpt><wpt lat="43.865780440" lon="-72.037301154"><ele>0.000000</ele><name>No Officia</name><cmt></cmt><desc></desc><sym>Waypoint</sym></wpt><wpt lat="44.400964428" lon="-71.109576378"><ele>0.000000</ele><name>US 2 Rattl</name><cmt></cmt><desc></desc><sym>Waypoint</sym></wpt><wpt lat="44.404068780" lon="-71.120132275"><ele>0.000000</ele><name>No Officia</name><cmt></cmt><desc></desc><sym>Waypoint</sym></wpt><wpt lat="44.040032849" lon="-71.792770137"><ele>0.000000</ele><name>NH 112</name><cmt></cmt><desc></desc><sym>Waypoint</sym></wpt><wpt lat="43.534074861" lon="-72.873478443"><ele>0.000000</ele><name>No Officia</name><cmt></cmt><desc></desc><sym>Waypoint</sym></wpt><wpt lat="45.650874482" lon="-69.031041750"><ele>0.000000</ele><name>Jo Mary Ro</name><cmt></cmt><desc></desc><sym>Waypoint</sym></wpt><wpt lat="45.763428973" lon="-69.175896728"><ele>0.000000</ele><name>logging rd</name><cmt></cmt><desc></desc><sym>Waypoint</sym></wpt><wpt lat="45.837644461" lon="-68.961112196"><ele>0.000000</ele><name>Golden Roa</name><cmt></cmt><desc></desc><sym>Waypoint</sym></wpt><wpt lat="45.837508703" lon="-68.961080929"><ele>0.000000</ele><name>No Officia</name><cmt></cmt><desc></desc><sym>Waypoint</sym></wpt><wpt lat="44.886937620" lon="-70.540834006"><ele>0.000000</ele><name>ME 4</name><cmt></cmt><desc></desc><sym>Waypoint</sym></wpt><wpt lat="38.897756329" lon="-78.071869241"><ele>0.000000</ele><name>VA 638</name><cmt></cmt><desc></desc><sym>Waypoint</sym></wpt><wpt lat="38.897325932" lon="-78.071728482"><ele>0.000000</ele><name>VA 638</name><cmt></cmt><desc></desc><sym>Waypoint</sym></wpt><wpt lat="38.911409743" lon="-78.053054585"><ele>0.000000</ele><name>VA 725</name><cmt></cmt><desc></desc><sym>Waypoint</sym></wpt><wpt lat="38.909327277" lon="-78.053351242"><ele>0.000000</ele><name>VA 55</name><cmt></cmt><desc></desc><sym>Waypoint</sym></wpt><wpt lat="38.556317305" lon="-78.386830293"><ele>0.000000</ele><name>Lower Hawk</name><cmt></cmt><desc></desc><sym>Waypoint</sym></wpt><wpt lat="38.587029919" lon="-78.383625635"><ele>0.000000</ele><name>Skyland So</name><cmt></cmt><desc></desc><sym>Waypoint</sym></wpt><wpt lat="38.590273038" lon="-78.379671703"><ele>0.000000</ele><name>Stables pa</name><cmt></cmt><desc></desc><sym>Waypoint</sym></wpt><wpt lat="38.593191231" lon="-78.375571209"><ele>0.000000</ele><name>Nature Tra</name><cmt></cmt><desc></desc><sym>Waypoint</sym></wpt><wpt lat="41.321164210" lon="-73.977849537"><ele>0.000000</ele><name>9D</name><cmt></cmt><desc></desc><sym>Waypoint</sym></wpt><wpt lat="41.329853707" lon="-73.952520728"><ele>0.000000</ele><name>South Moun</name><cmt></cmt><desc></desc><sym>Waypoint</sym></wpt><wpt lat="41.273720226" lon="-74.254240985"><ele>0.000000</ele><name>Lakes Road</name><cmt></cmt><desc></desc><sym>Waypoint</sym></wpt><wpt lat="41.270211649" lon="-74.214960162"><ele>0.000000</ele><name>West Momba</name><cmt></cmt><desc></desc><sym>Waypoint</sym></wpt><wpt lat="38.517035669" lon="-78.441887977"><ele>0.000000</ele><name>Tanners Ri</name><cmt></cmt><desc></desc><sym>Waypoint</sym></wpt><wpt lat="38.500292877" lon="-78.445861539"><ele>0.000000</ele><name>Skyline Dr</name><cmt></cmt><desc></desc><sym>Waypoint</sym></wpt><wpt lat="38.468437419" lon="-78.457356712"><ele>0.000000</ele><name>Bootens Ga</name><cmt></cmt><desc></desc><sym>Waypoint</sym></wpt><wpt lat="38.452467621" lon="-78.467058163"><ele>0.000000</ele><name>Bearfence</name><cmt></cmt><desc></desc><sym>Waypoint</sym></wpt><wpt lat="38.446581885" lon="-78.469600693"><ele>0.000000</ele><name>Bearfence</name><cmt></cmt><desc></desc><sym>Waypoint</sym></wpt><wpt lat="41.541454981" lon="-73.732507321"><ele>0.000000</ele><name>Route 52</name><cmt></cmt><desc></desc><sym>Waypoint</sym></wpt><wpt lat="41.545896428" lon="-73.715585068"><ele>0.000000</ele><name>Stormville</name><cmt></cmt><desc></desc><sym>Waypoint</sym></wpt><wpt lat="41.641136807" lon="-73.520170359"><ele>0.000000</ele><name>Hoyt Road</name><cmt></cmt><desc></desc><sym>Waypoint</sym></wpt><wpt lat="40.782948392" lon="-75.603841212"><ele>0.000000</ele><name>Lehigh Gap</name><cmt></cmt><desc></desc><sym>Waypoint</sym></wpt><wpt lat="40.412105654" lon="-76.930003913"><ele>0.000000</ele><name>PA Route 2</name><cmt></cmt><desc></desc><sym>Waypoint</sym></wpt><wpt lat="38.939914031" lon="-78.039607616"><ele>0.000000</ele><name>Upper Ted</name><cmt></cmt><desc></desc><sym>Waypoint</sym></wpt><wpt lat="40.744873867" lon="-75.738290398"><ele>0.000000</ele><name>Bake Oven</name><cmt></cmt><desc></desc><sym>Waypoint</sym></wpt><wpt lat="38.328608276" lon="-78.574733523"><ele>0.000000</ele><name>Smith Roac</name><cmt></cmt><desc></desc><sym>Waypoint</sym></wpt><wpt lat="38.345226660" lon="-78.552966740"><ele>0.000000</ele><name>Hightop Mo</name><cmt></cmt><desc></desc><sym>Waypoint</sym></wpt><wpt lat="38.254322335" lon="-78.682933197"><ele>0.000000</ele><name>Doyles Riv</name><cmt></cmt><desc></desc><sym>Waypoint</sym></wpt><wpt lat="38.246923770" lon="-78.693649804"><ele>0.000000</ele><name>Doyles Riv</name><cmt></cmt><desc></desc><sym>Waypoint</sym></wpt><wpt lat="38.240801784" lon="-78.710930485"><ele>0.000000</ele><name>Browns Gap</name><cmt></cmt><desc></desc><sym>Waypoint</sym></wpt><wpt lat="38.230018739" lon="-78.726098869"><ele>0.000000</ele><name>Jones Run</name><cmt></cmt><desc></desc><sym>Waypoint</sym></wpt><wpt lat="38.223109974" lon="-78.733426026"><ele>0.000000</ele><name>Black Rock</name><cmt></cmt><desc></desc><sym>Waypoint</sym></wpt><wpt lat="38.206815773" lon="-78.749726686"><ele>0.000000</ele><name>Black Rock</name><cmt></cmt><desc></desc><sym>Waypoint</sym></wpt><wpt lat="41.452701794" lon="-73.838064033"><ele>0.000000</ele><name>301</name><cmt></cmt><desc></desc><sym>Waypoint</sym></wpt><wpt lat="38.073100146" lon="-78.792906435"><ele>0.000000</ele><name>Skyline Dr</name><cmt></cmt><desc></desc><sym>Waypoint</sym></wpt><wpt lat="38.113567211" lon="-78.783933726"><ele>0.000000</ele><name>Sawmill Ru</name><cmt></cmt><desc></desc><sym>Waypoint</sym></wpt><wpt lat="38.129184370" lon="-78.784776284"><ele>0.000000</ele><name>Skyline Dr</name><cmt></cmt><desc></desc><sym>Waypoint</sym></wpt><wpt lat="38.149158503" lon="-78.774472271"><ele>0.000000</ele><name>Wildcat Ri</name><cmt></cmt><desc></desc><sym>Waypoint</sym></wpt><wpt lat="38.177757615" lon="-78.765250791"><ele>0.000000</ele><name>Riprap</name><cmt></cmt><desc></desc><sym>Waypoint</sym></wpt><wpt lat="41.265030481" lon="-74.154264872"><ele>0.000000</ele><name>Elk Pen</name><cmt></cmt><desc></desc><sym>Waypoint</sym></wpt><wpt lat="40.537896992" lon="-76.123529815"><ele>0.000000</ele><name>North Kill</name><cmt></cmt><desc></desc><sym>Waypoint</sym></wpt></gpx>
